{
  "features": [
    {
      "geometry": {
        "type": "Point",
        "coordinates": [
          -87.651998,
          41.914845
        ]
      },
      "properties": {
        "marker-size": "medium",
        "clusters": "Malort (Rackspace)",
        "location": "Chicago"
      },
      "type": "Feature"
    },
    {
      "geometry": {
        "type": "Point",
        "coordinates": [
          -77.486283,
          39.052252
        ]
      },
      "properties": {
        "marker-size": "medium",
        "clusters": "Jubilee (Joyent)",
        "location": "US East"
      },
      "type": "Feature"
    },
    {
      "geometry": {
        "type": "Point",
        "coordinates": [
          -0.085272,
          51.530661
        ]
      },
      "properties": {
        "marker-size": "medium",
        "clusters": "Mead (Rackspace)",
        "location": "London"
      },
      "type": "Feature"
    },
    {
      "geometry": {
        "type": "Point",
        "coordinates": [
          103.757086,
          1.29559
        ]
      },
      "properties": {
        "marker-size": "medium",
        "clusters": "Sling (Softlayer)",
        "location": "South-East Asia"
      },
      "type": "Feature"
    },
    {
      "geometry": {
        "type": "Point",
        "coordinates": [
          4.895168,
          52.370216
        ]
      },
      "properties": {
        "marker-size": "medium",
        "clusters": "Jenever (Softlayer)",
        "location": "Amsterdam"
      },
      "type": "Feature"
    },
    {
      "geometry": {
        "type": "Point",
        "coordinates": [
          -122.143019,
          37.441883
        ]
      },
      "properties": {
        "marker-size": "large",
        "clusters": "Lagoon 2 (Azure; in beta), Meritage (Softlayer)",
        "location": "US West"
      },
      "type": "Feature"
    }
  ],
  "type": "FeatureCollection"
}
